City_ID,City,Lat,Lng,Max Temp,Humidity,Cloudiness,Wind Speed,Country,Date
0,nova vicosa,-17.8919,-39.3719,298.93,70,Clouds,3.46,BR,1686847070
1,menaka,15.9182,2.4022,314.32,19,Clouds,5.8,ML,1686847071
2,tazovsky,67.4667,78.7,276.15,95,Clouds,4.63,RU,1686847071
3,kiruna,67.8557,20.2251,286.66,51,Clear,6.17,SE,1686847072
4,esquel,-42.9,-71.3167,276.81,94,Clouds,0.58,AR,1686846953
5,adamstown,-25.066,-130.1015,294.46,68,Clouds,4.82,PN,1686847074
6,island harbour,50.724,-1.2758,299.28,61,Clouds,4.66,GB,1686847075
7,sao joao do piaui,-8.3581,-42.2467,309.09,26,Clear,3.91,BR,1686847077
8,bac lieu,9.285,105.7244,301.06,80,Clouds,4.61,VN,1686847078
9,volodarskiy,46.4013,48.5409,300.12,52,Clouds,5.46,RU,1686847080
10,port lincoln,-34.7333,135.8667,286.54,64,Clear,7.83,AU,1686847081
11,kristiansund,63.1115,7.732,292.18,59,Clear,4.12,NO,1686847081
12,bilibino,68.0546,166.4372,273.53,70,Clear,1.87,RU,1686847082
13,badagry,6.4167,2.8833,298.58,88,Rain,4.67,NG,1686847083
14,lebu,-37.6167,-73.65,285.87,82,Clouds,4.92,CL,1686847084
15,edinburgh of the seven seas,-37.0676,-12.3116,285.7,63,Rain,17.09,SH,1686847085
16,zheleznodorozhnyy,55.7503,38.0042,299.44,51,Clouds,2.8,RU,1686846787
17,port-aux-francais,-49.35,70.2167,279.27,96,Clouds,12.16,TF,1686847087
18,isafjordur,66.0755,-23.124,287.17,77,Clouds,2.57,IS,1686847088
19,lijiang,26.8688,100.2207,287.37,95,Clouds,1.7,CN,1686847090
20,touros,-5.1989,-35.4608,302.18,65,Clouds,5.45,BR,1686847091
21,siguiri,11.6667,-9.5,309.15,33,Clouds,3.28,GN,1686847092
22,uige,-7.6087,15.0613,296.15,66,Clear,1.05,AO,1686846805
23,puerto natales,-51.7236,-72.4875,279.4,49,Clouds,11.32,CL,1686847095
24,saint-francois,46.4154,3.9054,301.84,26,Clear,5.14,FR,1686847097
25,san patricio,28.017,-97.5169,307.55,36,Clouds,6.42,US,1686847098
26,ribeira grande,38.5167,-28.7,294.69,78,Clouds,6.69,PT,1686847099
27,waitangi,-43.9535,-176.5597,284.16,65,Clouds,8.26,NZ,1686847100
28,albany,42.6001,-73.9662,296.28,65,Clouds,1.34,US,1686846601
29,hobyo,5.3505,48.5268,299.24,78,Clouds,10.92,SO,1686847102
30,port mathurin,-19.6833,63.4167,297.85,74,Clouds,7.78,MU,1686847105
31,tarija,-21.5355,-64.7296,288.1,31,Clear,0.0,BO,1686847106
32,puerto ayora,-0.7393,-90.3518,303.13,85,Clouds,3.13,EC,1686847107
33,holualoa,19.6228,-155.9522,296.06,96,Rain,3.6,US,1686846996
34,nemuro,43.3236,145.575,286.42,97,Clouds,2.94,JP,1686847108
35,aykhal,66.0,111.5,280.95,73,Clouds,9.03,RU,1686847109
36,guerrero negro,27.9769,-114.0611,292.98,66,Clouds,7.98,MX,1686847110
37,bethel,41.3712,-73.414,296.62,63,Clouds,3.6,US,1686847010
38,hawaiian paradise park,19.5933,-154.9731,294.84,99,Rain,2.06,US,1686847112
39,papatowai,-46.5619,169.4708,278.5,76,Clouds,2.68,NZ,1686847113
40,kiunga,-6.1219,141.2906,296.12,99,Rain,1.45,PG,1686847114
41,carnarvon,-24.8667,113.6333,290.68,75,Clear,5.73,AU,1686847115
42,thompson,55.7435,-97.8558,289.24,44,Smoke,3.09,CA,1686846876
43,jamestown,42.097,-79.2353,293.44,65,Clouds,4.12,US,1686846933
44,l'govskiy,51.6307,35.2775,290.28,90,Clouds,4.92,RU,1686847119
45,utrik,11.2278,169.8474,300.73,80,Rain,9.13,MH,1686847119
46,bardai,11.65,7.2333,302.79,49,Clouds,2.35,NG,1686847121
47,khandyga,62.6667,135.6,282.31,95,Clear,1.6,RU,1686847122
48,crane,31.3974,-102.3501,308.77,8,Clouds,7.99,US,1686847122
49,springbok,-29.6643,17.8865,283.09,97,Rain,1.53,ZA,1686847123
50,malvan,16.0667,73.4667,301.95,81,Clouds,4.98,IN,1686847125
51,rabo de peixe,37.8,-25.5833,293.88,88,Rain,5.66,PT,1686847126
52,egilsstadir,65.2653,-14.3948,294.1,46,Clouds,8.23,IS,1686847127
53,dickinson,29.4608,-95.0513,309.27,71,Haze,7.72,US,1686847128
54,ulsteinvik,62.3432,5.8487,293.65,76,Clouds,4.5,NO,1686847129
55,tiksi,71.6872,128.8694,277.25,83,Clouds,1.07,RU,1686847130
56,sola,-13.8833,167.55,299.34,78,Clouds,2.02,VU,1686847132
57,arraial do cabo,-22.9661,-42.0278,300.07,69,Clouds,7.2,BR,1686847133
58,enewetak,11.3474,162.3373,300.79,79,Clouds,9.35,MH,1686847134
59,invercargill,-46.4,168.35,276.94,83,Clouds,1.84,NZ,1686847135
60,margaret river,-33.95,115.0667,288.6,68,Clouds,9.68,AU,1686847136
61,liwonde,-15.0506,35.2035,294.82,34,Clouds,0.84,MW,1686847136
62,saipan,15.1355,145.701,301.54,100,Clouds,6.17,MP,1686847137
63,longyearbyen,78.2186,15.6401,277.06,70,Clouds,5.66,SJ,1686847138
64,kyabe,9.4515,18.9449,299.06,74,Clouds,0.8,TD,1686847139
65,tazacorte,28.629,-17.9293,297.69,81,Clouds,5.66,ES,1686847140
66,fale old settlement,-9.3852,-171.2468,302.01,70,Clouds,7.99,TK,1686847141
67,vadso,70.0744,29.7487,282.64,49,Clouds,6.17,NO,1686847143
68,olonkinbyen,70.9221,-8.7187,276.25,92,Clouds,3.92,SJ,1686847143
69,grytviken,-54.2811,-36.5092,272.8,82,Clouds,2.33,GS,1686847144
70,wailua homesteads,22.0669,-159.378,295.59,91,Rain,5.66,US,1686847145
71,ilulissat,69.2167,-51.1,277.16,75,Clouds,2.57,GL,1686847146
72,barra de santo antonio,-9.4047,-35.5072,299.75,84,Clouds,5.7,BR,1686847146
73,altay,47.8667,88.1167,288.17,38,Clouds,2.39,CN,1686847147
74,georgetown,5.4112,100.3354,302.11,81,Clouds,1.03,MY,1686846927
75,zapolyarnyy,69.4154,30.8136,281.75,52,Clear,9.52,RU,1686847149
76,petropavlovsk-kamchatsky,53.0452,158.6483,281.48,76,Clear,3.0,RU,1686847150
77,okhotsk,59.3833,143.3,281.54,97,Rain,1.04,RU,1686847151
78,puerto armuelles,8.2833,-82.8667,303.14,74,Clouds,2.24,PA,1686847152
79,taizhou,32.4933,119.9106,297.47,60,Clouds,3.37,CN,1686846931
80,smithers,54.7804,-127.1743,286.33,50,Clouds,2.57,CA,1686847154
81,hithadhoo,-0.6,73.0833,302.1,74,Clouds,5.41,MV,1686847155
82,lazaro cardenas,17.9583,-102.2,304.41,57,Clouds,3.31,MX,1686847156
83,verkhnevilyuysk,63.4453,120.3167,279.52,88,Clouds,3.24,RU,1686847157
84,miguel ahumada,30.6167,-106.5167,303.0,7,Clouds,3.38,MX,1686847158
85,marsabit,2.3284,37.9899,295.68,49,Clouds,4.6,KE,1686847159
86,uthal,25.8072,66.6219,305.37,55,Clouds,3.81,PK,1686847161
87,bakchar,57.0186,82.0711,284.63,97,Rain,2.69,RU,1686846921
88,nova sintra,14.8667,-24.7167,294.28,79,Clouds,8.04,CV,1686847162
89,mancio lima,-7.6142,-72.8958,290.19,72,Clouds,4.12,BR,1686847163
90,saudarkrokur,65.7461,-19.6394,288.44,74,Clouds,1.43,IS,1686847164
91,scarperia,43.992,11.3538,299.92,60,Clear,2.74,IT,1686847165
92,melekeok village,7.4957,134.6367,298.46,94,Clouds,0.0,PW,1686847166
93,belyy yar,53.6039,91.3903,285.09,76,Clear,2.0,RU,1686847167
94,blackmans bay,-43.0167,147.3167,281.22,85,Clouds,3.13,AU,1686847168
95,afaahiti,-17.75,-149.2833,298.08,88,Rain,9.49,PF,1686847170
96,nuuk,64.1835,-51.7216,276.49,75,Clouds,3.6,GL,1686847171
97,sitka,57.0531,-135.33,283.09,76,Rain,0.0,US,1686847172
98,barcelona,41.3888,2.159,303.81,61,Clouds,5.66,ES,1686847057
99,pathein,16.7833,94.7333,299.81,89,Clear,1.95,MM,1686847174
100,boende,-0.2167,20.8667,299.29,79,Clouds,1.37,CD,1686847175
101,kuhmo,64.1333,29.5167,295.98,38,Clear,1.72,FI,1686847177
102,college,64.8569,-147.8028,286.6,64,Clouds,2.57,US,1686846957
103,bullhead city,35.1478,-114.5683,305.38,29,Clear,4.02,US,1686847178
104,dul'durga,50.6761,113.5931,282.55,63,Clouds,2.33,RU,1686847179
105,changping,40.2186,116.2197,300.95,41,Clouds,1.39,CN,1686847180
106,tralee,52.2704,-9.7026,294.29,68,Rain,2.06,IE,1686847013
107,fortuna,40.5982,-124.1573,288.11,83,Clouds,2.57,US,1686847181
108,coquimbo,-29.9533,-71.3436,291.0,31,Clear,5.14,CL,1686847094
109,stanley,54.868,-1.6985,293.99,54,Clear,4.63,GB,1686847182
110,happy valley-goose bay,53.3168,-60.3315,284.32,66,Clouds,5.14,CA,1686847186
111,pisco,-13.7,-76.2167,293.18,73,Clouds,2.06,PE,1686847189
112,newman,37.3138,-121.0208,296.61,66,Clear,0.89,US,1686847190
113,choroszcz,53.1433,22.9889,296.09,49,Clear,1.97,PL,1686847190
114,banff,51.1762,-115.5698,281.72,87,Clouds,1.54,CA,1686847050
115,nabire,-3.3667,135.4833,296.79,93,Clouds,1.63,ID,1686847192
116,alaghsas,17.0187,8.0168,314.09,26,Thunderstorm,3.09,NE,1686847193
117,salida,37.7058,-121.0849,296.67,68,Clear,4.12,US,1686847194
118,mount pearl,47.5166,-52.7813,287.51,78,Clouds,5.66,CA,1686847194
119,oranjemund,-28.55,16.4333,288.89,81,Clouds,1.84,NA,1686847195
120,tucumcari,35.1717,-103.725,299.23,49,Clear,3.09,US,1686847196
121,koryazhma,61.3143,47.1691,290.4,57,Clear,1.77,RU,1686847197
122,malango,-2.9627,119.9001,291.75,96,Clouds,0.82,ID,1686847198
123,west island,-12.1568,96.8225,299.14,89,Rain,7.02,CC,1686847199
124,howard springs,-12.497,131.047,293.61,44,Clouds,2.67,AU,1686847201
125,fornacette,43.6667,10.5667,301.69,57,Clouds,5.14,IT,1686847201
126,gadzhiyevo,69.2551,33.3362,279.68,63,Clouds,10.09,RU,1686847202
127,najran,17.4924,44.1277,307.51,21,Clouds,1.86,SA,1686847203
128,alofi,-19.0595,-169.9187,295.09,94,Clouds,1.54,NU,1686847204
129,ancud,-41.8697,-73.8203,281.83,65,Clouds,3.3,CL,1686847205
130,leava,-14.3,-178.1667,300.43,81,Rain,4.33,WF,1686847206
131,hammerfest,70.6634,23.6821,279.4,70,Clouds,3.09,NO,1686847208
132,mandera,3.9366,41.867,304.07,41,Clouds,5.49,KE,1686847209
133,vegreville,53.5001,-112.0518,283.32,87,Rain,13.89,CA,1686846961
134,dudinka,69.4058,86.1778,280.72,82,Clouds,3.01,RU,1686847210
135,isabela,6.7085,121.9711,299.12,84,Clouds,2.37,PH,1686847212
136,magadan,59.5667,150.8,280.34,97,Clouds,0.75,RU,1686847213
137,le vauclin,14.5452,-60.8388,305.18,66,Clouds,9.26,MQ,1686847213
138,takayama,36.1333,137.25,288.9,99,Rain,0.96,JP,1686847214
139,morondava,-20.2833,44.2833,296.9,62,Clear,4.09,MG,1686847215
140,fort st. john,56.2499,-120.8529,284.09,82,Smoke,2.06,CA,1686847216
141,valchedram,43.6964,23.4447,291.99,96,Clouds,2.78,BG,1686847217
142,soldanesti,47.8153,28.7967,295.92,61,Clouds,2.16,MD,1686847218
143,iqaluit,63.7506,-68.5145,277.0,64,Clouds,7.2,CA,1686847219
144,al ain city,24.1917,55.7606,310.94,37,Clear,6.69,AE,1686847219
145,badger,64.8,-147.5333,286.56,65,Clouds,2.57,US,1686847220
146,punta arenas,-53.15,-70.9167,277.16,68,Clouds,10.14,CL,1686847088
147,tsiombe,-25.3,45.4833,292.55,76,Clear,1.72,MG,1686847223
148,tomatlan,19.9333,-105.25,307.31,35,Clouds,3.33,MX,1686847224
149,saint croix,17.7397,-64.7388,304.4,62,Clouds,8.23,VI,1686847225
150,hilo,19.7297,-155.09,297.19,99,Rain,2.06,US,1686847225
151,viseu,40.661,-7.9097,304.18,35,Clouds,3.17,PT,1686847226
152,zhanaozen,43.3,52.8,304.88,13,Clouds,1.41,KZ,1686847227
153,new norfolk,-42.7826,147.0587,281.87,81,Clouds,0.89,AU,1686847228
154,jiuquan,39.7432,98.5174,296.4,17,Clouds,1.59,CN,1686847229
155,oyama,36.3,139.8,291.12,96,Rain,2.46,JP,1686847230
156,celestun,20.8667,-90.4,307.15,53,Clear,2.57,MX,1686847231
157,remire-montjoly,4.9167,-52.2667,303.17,66,Rain,4.12,GF,1686846994
158,thief river falls,48.1191,-96.1812,291.68,59,Clear,6.69,US,1686847233
159,bredasdorp,-34.5322,20.0403,284.71,88,Clouds,3.76,ZA,1686847234
160,uturoa,-16.7333,-151.4333,300.53,81,Clouds,8.03,PF,1686847235
161,songyang,34.4553,113.0281,297.9,50,Clouds,2.16,CN,1686847236
162,st. john's,47.5649,-52.7093,287.97,79,Rain,5.66,CA,1686847200
163,bandar lampung,-5.4254,105.258,296.51,92,Clouds,0.88,ID,1686847237
164,auki,-8.7676,160.7034,298.23,87,Clouds,1.48,SB,1686847238
165,aasiaat,68.7098,-52.8699,273.84,79,Clouds,3.99,GL,1686847239
166,richards bay,-28.783,32.0377,292.63,78,Clear,3.25,ZA,1686847241
167,praia da vitoria,38.7333,-27.0667,297.29,64,Clouds,5.7,PT,1686847242
168,yellowknife,62.456,-114.3525,287.44,54,Clouds,5.66,CA,1686847243
169,hadibu,12.65,54.0333,301.41,76,Clouds,7.76,YE,1686847244
170,nejo,9.5,35.5,289.24,90,Clouds,1.2,ET,1686847245
171,klyuchi,52.2667,79.1667,291.24,43,Clouds,3.37,RU,1686847246
172,le blanc,46.6667,1.1667,303.37,48,Clouds,1.79,FR,1686847248
173,kununurra,-15.7667,128.7333,289.14,88,Clouds,0.0,AU,1686847251
174,tamanrasset,22.785,5.5228,309.1,12,Clouds,3.6,DZ,1686847251
175,ushuaia,-54.8,-68.3,276.96,70,Clouds,2.57,AR,1686847252
176,castillos,-34.1667,-53.8333,287.98,62,Clouds,2.88,UY,1686847252
177,woodend,-43.3167,172.6667,284.79,75,Clouds,2.03,NZ,1686847253
178,shira,54.4911,89.9531,283.08,73,Clear,2.42,RU,1686847254
179,broome,42.2506,-75.833,296.83,59,Clouds,4.12,US,1686847255
180,porto novo,6.4965,2.6036,300.05,90,Rain,3.75,BJ,1686847256
181,port elizabeth,-33.918,25.5701,287.31,93,Rain,9.26,ZA,1686847257
182,minzhu,43.7286,127.3447,289.53,90,Clouds,1.02,CN,1686847257
183,petauke,-14.2426,31.3253,292.5,32,Clouds,1.07,ZM,1686847258
184,mersa matruh,31.3525,27.2453,298.32,61,Clear,5.3,EG,1686847259
185,whitehorse,60.7161,-135.0538,283.2,53,Clouds,6.17,CA,1686847058
186,sinabang,2.4803,96.3801,300.15,76,Clouds,0.58,ID,1686847261
187,barreiro do jaiba,-15.6167,-43.6,305.54,28,Clouds,2.13,BR,1686847262
188,westport,41.1415,-73.3579,297.22,62,Clouds,4.63,US,1686847264
189,bayganin,48.6947,55.8742,299.4,24,Clouds,4.01,KZ,1686847264
190,arteche,12.2645,125.4048,299.63,88,Clouds,3.21,PH,1686847265
191,kupang,-10.1667,123.5833,295.64,84,Clouds,3.47,ID,1686847265
192,atafu village,-8.5421,-172.5159,302.0,74,Rain,8.45,TK,1686847266
193,sandnessjoen,66.0217,12.6316,292.44,82,Clouds,6.69,NO,1686847266
194,saldanha,-33.0117,17.9442,288.18,84,Clouds,2.13,ZA,1686847267
195,nantucket,41.2835,-70.0995,294.9,72,Clear,7.72,US,1686847028
196,tocopilla,-22.092,-70.1979,294.43,61,Clear,1.9,CL,1686847268
197,kuybyshev,55.4475,78.3218,285.78,82,Clouds,3.04,RU,1686847269
198,karlovac,45.4872,15.5478,297.11,82,Rain,3.25,HR,1686847270
199,ponta delgada,37.7333,-25.6667,294.55,88,Rain,5.66,PT,1686847271
200,eenhana,-17.4667,16.3333,292.99,12,Clear,2.03,NA,1686847271
201,tolanaro,-25.0319,46.9987,293.19,83,Clear,0.0,MG,1686847273
202,baracoa,20.3467,-74.4958,304.51,65,Clouds,1.85,CU,1686847273
203,hermanus,-34.4187,19.2345,287.48,81,Clouds,4.29,ZA,1686847274
204,berdigestyakh,62.0989,126.6992,283.58,95,Rain,6.36,RU,1686847276
205,akureyri,65.6835,-18.0878,290.11,67,Clouds,6.69,IS,1686847276
206,baniachang,24.5167,91.3667,297.87,95,Rain,3.0,BD,1686847277
207,kone,-21.0595,164.8658,293.44,77,Clouds,1.87,NC,1686847278
208,lubango,-14.9172,13.4925,296.07,20,Clear,2.57,AO,1686847279
209,pangai,-19.8,-174.35,296.13,71,Rain,4.75,TO,1686847280
210,zyryanovsk,49.7386,84.2719,284.89,74,Clear,0.48,KZ,1686847281
211,todos santos,23.45,-110.2167,296.91,61,Clouds,2.24,MX,1686847282
212,tromso,69.6496,18.957,282.8,76,Clouds,2.06,NO,1686847283
213,boca suno,-0.7167,-77.1333,295.92,98,Clouds,1.72,EC,1686847284
214,trasacco,41.9569,13.5345,293.3,72,Rain,1.25,IT,1686847285
215,ivdel',60.6911,60.4206,284.67,58,Clouds,2.2,RU,1686847286
216,maintirano,-18.0667,44.0167,297.25,65,Clear,3.73,MG,1686847287
217,bairnsdale,-37.8333,147.6167,281.89,83,Clouds,2.93,AU,1686847287
218,beyla,8.6833,-8.6333,298.28,87,Rain,0.89,GN,1686847288
219,elimaki,60.7167,26.4667,299.63,32,Clear,2.27,FI,1686847290
220,robbah,33.2797,6.9098,304.95,26,Clear,3.47,DZ,1686847291
221,avarua,-21.2078,-159.775,294.18,100,Rain,1.03,CK,1686847294
222,berezovo,63.9381,65.0419,281.76,59,Clouds,3.14,RU,1686847294
223,mutum,-19.8,-41.4383,302.52,41,Clouds,1.42,BR,1686847296
224,klamath falls,42.2249,-121.7817,288.63,46,Clear,1.79,US,1686847041
225,sona,45.4388,10.8255,298.12,53,Rain,3.09,IT,1686847299
226,berezovyy,51.6667,135.7,282.0,95,Clear,1.35,RU,1686847299
227,arno,60.1167,18.6333,289.14,52,Clouds,2.84,SE,1686847300
228,marechal candido rondon,-24.5561,-54.0567,285.17,91,Clouds,2.51,BR,1686847301
229,ust-nera,64.5667,143.2,283.24,80,Clouds,1.3,RU,1686847302
230,umm kaddadah,13.6017,26.6876,308.69,30,Clouds,3.72,SD,1686847303
231,kavaratti,10.5669,72.642,302.65,76,Clouds,6.62,IN,1686847304
232,abou el hassan,36.4166,1.1962,299.08,50,Clouds,5.35,DZ,1686847304
233,kralendijk,12.15,-68.2667,304.14,70,Clouds,11.32,BQ,1686847028
234,talnakh,69.4865,88.3972,280.49,84,Clouds,0.91,RU,1686847306
235,mosjoen,65.836,13.1908,292.44,42,Clear,3.6,NO,1686847307
236,kargasok,59.0556,80.8572,279.91,64,Clouds,3.36,RU,1686847307
237,winchester,51.0651,-1.3187,300.58,35,Clear,3.09,GB,1686847308
238,tindouf,27.6711,-8.1474,311.4,18,Clear,3.09,DZ,1686847309
239,eirunepe,-6.6603,-69.8736,297.0,56,Clouds,2.38,BR,1686847314
240,likasi,-10.9814,26.7333,291.21,43,Clear,0.64,CD,1686847315
241,palikir - national government center,6.9248,158.1611,300.45,80,Rain,5.22,FM,1686847316
242,chernyshevskiy,63.0128,112.4714,280.49,78,Clouds,4.81,RU,1686847317
243,la passe,45.5549,-0.8967,299.09,71,Clear,5.32,FR,1686847317
244,saint-philippe,-21.3585,55.7679,297.92,79,Rain,4.15,RE,1686847319
245,shiyan,32.6475,110.7781,295.45,66,Rain,0.81,CN,1686847320
246,lompoc,34.6391,-120.4579,292.98,78,Mist,2.06,US,1686847321
247,cabo san lucas,22.8909,-109.9124,306.76,39,Clear,2.06,MX,1686847229
248,barnstable,41.7001,-70.2995,296.66,75,Clouds,5.14,US,1686847322
249,minas de marcona,-15.2119,-75.1103,291.8,56,Clouds,5.27,PE,1686847323
250,nikel,69.4128,30.222,282.25,50,Clear,9.24,RU,1686847324
251,kohtla-jarve,59.3986,27.2731,291.08,56,Clear,1.22,EE,1686847325
252,shangqiu,34.45,115.65,301.32,36,Clouds,3.39,CN,1686847326
253,udachny,66.4167,112.4,283.43,63,Clouds,7.65,RU,1686847327
254,timimoun,29.2639,0.231,314.36,10,Clouds,3.09,DZ,1686847328
255,camacupa,-12.0167,17.4833,291.53,30,Clouds,0.47,AO,1686847329
256,trofaiach,47.4167,15.0,293.96,64,Clouds,1.83,AT,1686847329
257,kinmparana,12.8402,-4.9199,306.35,45,Clouds,5.55,ML,1686847330
258,kodiak,57.79,-152.4072,279.88,93,Rain,10.8,US,1686847331
259,vila velha,-20.3297,-40.2925,300.12,76,Clouds,5.14,BR,1686847332
260,zaqatala,41.6336,46.6433,293.41,88,Rain,4.12,AZ,1686847333
261,altayskoye,51.9533,85.3325,283.42,87,Clear,2.02,RU,1686847335
262,noumea,-22.2763,166.4572,294.82,99,Clouds,1.42,NC,1686847336
263,mata-utu,-13.2816,-176.1745,300.9,77,Rain,4.97,WF,1686847337
264,portland,45.5234,-122.6762,289.14,72,Clouds,2.57,US,1686847162
265,melenci,45.5139,20.3172,289.44,93,Rain,2.22,RS,1686847338
266,san julian,21.0167,-102.1667,300.99,25,Clouds,2.06,MX,1686847339
267,khabary,53.6259,79.5345,289.44,51,Clouds,3.72,RU,1686847340
268,umarkot,25.3616,69.7362,304.03,57,Rain,9.41,PK,1686847341
269,luderitz,-26.6481,15.1594,287.76,84,Clear,4.11,NA,1686847342
270,gueret,46.1667,1.8667,290.24,88,Clouds,3.21,FR,1686847343
271,lata,40.1629,-8.3327,305.88,48,Clouds,4.53,PT,1686847345
272,vila franca do campo,37.7167,-25.4333,294.38,79,Clouds,5.18,PT,1686847346
273,rocha,-34.4833,-54.3333,288.94,50,Clear,2.54,UY,1686847346
274,pingdu,36.7844,119.9464,294.11,67,Clouds,4.95,CN,1686847348
275,senador guiomard,-10.1522,-67.7392,290.01,53,Clouds,2.06,BR,1686847348
276,bulungu,-4.55,18.6,301.2,56,Clouds,0.18,CD,1686847351
277,sulya,12.5667,75.3833,298.83,90,Clouds,0.39,IN,1686847351
278,victoria falls,-17.9235,25.843,291.38,13,Clear,1.42,ZW,1686847352
279,yaren,-0.5472,166.916,301.81,78,Rain,5.02,NR,1686847352
280,dingli,35.8614,14.3822,296.24,64,Clouds,8.75,MT,1686847352
281,rongelap,11.1635,166.8941,301.02,78,Clouds,9.7,MH,1686847353
282,amungan,15.3652,119.9582,300.15,86,Clouds,1.13,PH,1686847353
283,yilan,24.757,121.753,298.16,97,Rain,0.57,TW,1686847353
284,lihue,21.9789,-159.3672,295.92,89,Rain,5.66,US,1686847354
285,west side highway,46.184,-122.9172,288.03,73,Clouds,2.06,US,1686847354
286,vilhena,-12.7406,-60.1458,291.27,77,Clear,4.12,BR,1686847122
287,susuman,62.7833,148.1667,286.28,69,Clouds,2.14,RU,1686847355
288,kirkwall,58.9848,-2.9587,292.18,52,Clear,5.66,GB,1686847356
289,labytnangi,66.6572,66.4183,279.77,84,Clouds,7.17,RU,1686847357
290,hasaki,35.7333,140.8333,294.38,97,Rain,10.0,JP,1686847358
291,amursk,50.2261,136.8994,285.49,80,Clouds,0.39,RU,1686847359
292,jutai,-5.1833,-68.9,298.25,57,Clouds,2.37,BR,1686847360
293,sattahip,12.6664,100.9007,302.58,83,Clouds,3.09,TH,1686847360
294,diamantino,-14.4086,-56.4461,291.47,65,Clouds,2.65,BR,1686847098
295,pratapgarh,24.0333,74.7833,302.69,55,Clouds,9.49,IN,1686847349
296,kitimat,54.0524,-128.6534,288.53,66,Clouds,2.68,CA,1686847363
297,broken hill,-31.95,141.4333,282.23,63,Clear,4.16,AU,1686847363
298,sandpoint,48.2766,-116.5533,290.22,66,Clouds,2.06,US,1686847360
299,tonghua,41.7201,125.9219,289.14,92,Clouds,1.35,CN,1686847364
300,chivhu,-19.0211,30.8922,286.98,14,Clear,2.0,ZW,1686847364
301,tanjungtiram,4.0613,98.3699,298.68,89,Clouds,1.87,ID,1686847365
302,cordele,31.9635,-83.7824,293.14,88,Rain,2.06,US,1686847365
303,lai chau,22.3997,103.4517,294.38,98,Rain,0.69,VN,1686847365
304,kingston,17.997,-76.7936,306.62,57,Clouds,10.8,JM,1686847366
305,ruidoso,33.3317,-105.673,296.9,15,Clear,8.75,US,1686847366
306,weno,7.4515,151.8468,300.12,94,Clouds,1.54,FM,1686847366
307,fort mcmurray,56.7268,-111.381,284.92,93,Rain,4.12,CA,1686847297
308,mudgee,-32.5943,149.5871,276.18,93,Clear,1.25,AU,1686847367
309,tayu,-6.5397,111.0518,298.96,85,Clouds,3.44,ID,1686847367
310,san antonio de pale,-1.4014,5.6325,298.09,82,Clouds,6.53,GQ,1686847368
311,the pas,53.8251,-101.2541,289.16,77,Clouds,7.2,CA,1686847368
312,iskateley,67.6803,53.1512,277.49,71,Clouds,11.31,RU,1686847368
313,hjo,58.3013,14.2878,299.27,34,Clear,2.37,SE,1686847279
314,hamilton,39.1834,-84.5333,300.7,61,Clear,3.09,US,1686847310
315,podporozh'ye,60.9112,34.1706,293.6,47,Clear,2.86,RU,1686847371
316,chonchi,-42.6128,-73.8092,283.22,69,Clouds,2.73,CL,1686847372
317,port douglas,-16.4833,145.4667,295.44,82,Clouds,1.62,AU,1686847373
318,santa cruz,-17.8,-63.1667,292.18,34,Clouds,4.63,BO,1686847099
319,laguna,38.421,-121.4238,299.24,67,Clear,2.06,US,1686847375
320,acarau,-2.8856,-40.12,302.4,68,Clouds,6.09,BR,1686847376
321,arkhara,49.4212,130.0842,287.46,68,Clouds,2.34,RU,1686847377
322,kavieng,-2.5744,150.7967,299.59,81,Clouds,2.41,PG,1686847378
323,east falmouth,41.5784,-70.5586,296.69,76,Clouds,3.6,US,1686847379
324,bilajer,40.5681,50.0378,297.05,78,Clouds,7.2,AZ,1686847380
325,harper,4.375,-7.7169,300.77,64,Clouds,3.26,LR,1686847380
326,ardakan,32.31,54.0175,309.44,10,Clear,2.8,IR,1686847383
327,dalandzadgad,43.5708,104.425,298.33,14,Clouds,5.9,MN,1686847384
328,mindelo,16.8901,-24.9804,301.9,51,Clouds,9.26,CV,1686847385
329,lima,-12.0432,-77.0282,294.29,64,Clouds,5.66,PE,1686847136
330,balykshi,47.0667,51.8667,306.15,15,Clear,4.0,KZ,1686847388
331,velyka oleksandrivka,47.3197,33.3037,294.43,76,Clouds,3.33,UA,1686847390
332,mar del plata,-38.0023,-57.5575,287.01,52,Clear,8.23,AR,1686847390
333,pimentel,-6.8367,-79.9342,299.31,57,Clear,5.14,PE,1686847391
334,nanma,36.1817,118.1583,296.56,49,Clear,2.06,CN,1686847392
335,petawawa,45.9001,-77.3328,293.92,64,Clouds,5.66,CA,1686847393
336,novoarkhanhel's'k,48.658,30.8182,294.5,76,Rain,3.02,UA,1686847394
337,kaiyuan,23.6977,103.3037,293.01,96,Clouds,2.05,CN,1686847394
338,big bear city,34.2611,-116.845,293.89,34,Clear,3.09,US,1686847294
339,varzea alegre,-5.35,-40.3833,303.54,47,Clouds,3.38,BR,1686847396
340,sale,34.0389,-6.8166,305.17,61,Clouds,4.12,MA,1686847118
341,qaqortoq,60.7167,-46.0333,277.02,78,Clouds,2.23,GL,1686847399
342,san ignacio,17.1561,-89.0714,307.23,59,Clouds,5.14,BZ,1686847400
343,mahibadhoo,3.7833,72.9667,301.93,79,Clouds,5.68,MV,1686847401
344,malkara,40.89,26.9011,294.15,67,Clouds,3.46,TR,1686847402
345,carauari,-4.8828,-66.8958,299.45,54,Clouds,2.31,BR,1686847403
346,ola,59.5833,151.2833,280.22,97,Clouds,1.13,RU,1686847404
347,shizuishan,39.2333,106.7694,298.69,31,Clear,8.32,CN,1686847406
348,prince rupert,54.3161,-130.3201,285.2,72,Clouds,8.23,CA,1686847406
349,kabalo,-6.05,26.9167,300.56,32,Clear,1.8,CD,1686847407
350,beau vallon,-20.4189,57.6953,297.71,83,Clouds,4.12,MU,1686847408
351,taulaga,-11.0553,-171.0883,301.41,73,Clouds,6.46,AS,1686847409
352,kenai,60.5544,-151.2583,281.56,76,Rain,3.09,US,1686847411
353,dunedin,-45.8742,170.5036,283.6,72,Clouds,3.58,NZ,1686847412
354,bamboo flat,11.7,92.7167,299.2,94,Mist,1.03,IN,1686847413
355,vorgashor,67.5833,63.95,276.14,93,Rain,6.74,RU,1686847413
356,hoemul-li,41.4339,129.67,290.3,77,Clouds,1.55,KP,1686847414
357,alghero,40.5589,8.3181,298.2,69,Clouds,4.12,IT,1686847234
358,dellys,36.9172,3.9131,296.62,69,Clouds,4.82,DZ,1686847417
359,dahme,51.8667,13.4333,295.1,51,Clouds,0.61,DE,1686847418
360,nanakuli,21.3906,-158.1547,297.12,83,Clear,1.54,US,1686847419
361,selfoss,63.9331,-20.9971,287.62,78,Clouds,2.72,IS,1686847420
362,natitingou,10.3042,1.3796,299.33,79,Rain,0.83,BJ,1686847421
363,pohrebyshche,49.4864,29.2636,293.52,81,Rain,2.43,UA,1686847423
364,palmer,42.1584,-72.3287,296.99,58,Clouds,6.69,US,1686847425
365,qashyr,53.0675,76.1036,291.7,33,Clouds,3.37,KZ,1686847426
366,oliveira dos brejinhos,-12.3169,-42.8961,306.84,26,Clear,2.33,BR,1686847427
367,neiafu,-18.65,-173.9833,295.53,88,Clouds,0.0,TO,1686847427
368,greymouth,-42.4667,171.2,278.59,80,Clouds,3.61,NZ,1686847428
369,bedesa,8.9,40.7833,292.98,75,Clouds,1.27,ET,1686847430
370,waddan,29.1614,16.139,308.14,24,Clear,9.87,LY,1686847430
371,ash shatrah,31.4117,46.1742,311.93,12,Clear,4.25,IQ,1686847431
372,kapenguria,1.2511,35.0895,287.74,88,Rain,1.1,KE,1686847432
373,singkil,-7.9855,111.4161,295.18,91,Clouds,1.17,ID,1686847433
374,haiku-pauwela,20.9219,-156.3051,297.06,82,Clouds,3.09,US,1686847434
375,road town,18.4167,-64.6167,305.2,66,Clouds,5.14,VG,1686847434
376,alice town,25.7167,-79.3,301.68,74,Clouds,4.02,BS,1686847435
377,aquiraz,-3.9014,-38.3911,302.2,72,Clouds,4.87,BR,1686847438
378,queenstown,-31.8976,26.8753,284.2,66,Clouds,11.75,ZA,1686847439
379,vanimo,-2.6741,141.3028,298.46,88,Rain,2.96,PG,1686847440
380,keflavik,64.0049,-22.5624,290.1,82,Clear,8.23,IS,1686847440
381,vilyuchinsk,52.9306,158.4028,282.3,86,Clouds,4.54,RU,1686847441
382,balaipungut,1.05,101.2833,297.73,93,Clouds,0.82,ID,1686847442
383,santiago de cao,-7.9589,-79.2392,296.22,73,Fog,4.12,PE,1686847443
384,tucuma,-0.1833,-50.05,304.28,56,Clear,3.51,BR,1686847444
385,ewo,-0.8725,14.8206,299.7,76,Rain,1.02,CG,1686847445
386,masina,-4.3836,15.3914,301.26,63,Clouds,0.42,CD,1686847447
387,harstad,68.799,16.5293,282.81,100,Clouds,2.68,NO,1686847448
388,beledweyne,4.7358,45.2036,305.7,35,Clouds,6.91,SO,1686847450
389,genhe,50.7833,121.5167,283.47,84,Clouds,0.64,CN,1686847451
390,les cayes,18.2,-73.75,303.59,66,Clouds,5.58,HT,1686847452
391,stony plain,53.5334,-114.0021,284.0,89,Rain,6.17,CA,1686847416
392,port moresby,-9.4431,147.1797,297.22,89,Clouds,5.97,PG,1686847453
393,dakhla,23.6848,-15.958,297.16,69,Clear,11.32,EH,1686847454
394,quezon,7.7303,125.0989,295.58,96,Clouds,0.43,PH,1686847455
395,mana,5.6592,-53.7767,299.03,89,Rain,3.27,GF,1686847456
396,chibougamau,49.9168,-74.3659,292.94,56,Haze,3.09,CA,1686847178
397,trinity beach,-16.7888,145.6968,294.09,93,Clouds,0.51,AU,1686847458
398,east london,-33.0153,27.9116,287.67,82,Rain,3.6,ZA,1686847459
399,mitsamiouli,-11.3847,43.2844,298.31,83,Clouds,2.06,KM,1686847461
400,andergrove,-21.0833,149.1833,292.4,77,Clouds,1.5,AU,1686847462
401,kasama,-10.2129,31.1808,291.09,40,Clouds,1.38,ZM,1686847462
402,loango,-4.6719,11.8312,296.07,85,Clouds,3.51,CG,1686847463
403,eyl,7.9803,49.8164,299.37,76,Clouds,10.51,SO,1686847464
404,bryne,58.7354,5.6477,294.96,60,Clear,4.12,NO,1686847465
405,codrington,-38.2667,141.9667,283.78,83,Clouds,7.39,AU,1686847466
406,manacapuru,-3.2997,-60.6206,296.71,73,Clouds,2.93,BR,1686847467
407,paka,4.6374,103.4368,297.11,100,Clouds,0.0,MY,1686847469
408,constantia,44.1833,28.65,298.53,72,Clouds,4.34,RO,1686847469
409,montagu,-40.7667,144.9667,285.84,87,Clouds,6.55,AU,1686847470
410,makurazaki,31.2667,130.3167,294.68,78,Clouds,3.67,JP,1686847471
411,myadzyel,54.8731,26.9359,294.24,62,Clouds,2.89,BY,1686847472
412,flying fish cove,-10.4217,105.6791,298.97,88,Clouds,5.14,CX,1686847472
413,rovaniemi,66.5,25.7167,293.82,37,Clear,3.6,FI,1686847474
414,bolu,40.6667,31.5833,291.07,80,Clear,1.69,TR,1686847474
415,cremona,45.2333,9.9333,300.65,68,Clear,2.26,IT,1686847476
416,san giovanni in fiore,39.2633,16.6996,290.47,92,Rain,0.9,IT,1686847477
417,laojunmiao,39.8333,97.7333,294.71,17,Clouds,2.82,CN,1686847479
418,calca,-13.3333,-71.95,290.79,37,Clear,1.94,PE,1686847479
419,ad dilam,23.9915,47.1627,315.38,9,Clouds,3.72,SA,1686847480
420,dainava (kaunas),54.9152,23.9683,290.75,82,Clouds,1.03,LT,1686847481
421,santa marta,11.2408,-74.199,303.18,79,Clouds,3.6,CO,1686847482
422,tavda,58.0425,65.2726,284.73,60,Clouds,0.97,RU,1686847483
423,khorixas,-20.3667,14.9667,294.12,11,Clear,4.12,NA,1686847483
424,korla,41.7597,86.1469,299.2,32,Clouds,7.06,CN,1686847484
425,lae,-6.7221,146.9847,297.72,89,Clouds,1.49,PG,1686847485
426,amos,48.5669,-78.1162,292.2,62,Clouds,2.79,CA,1686847486
427,papao,-17.75,-149.55,298.97,89,Rain,10.23,PF,1686847487
428,acapulco de juarez,16.8634,-99.8901,304.05,62,Clouds,2.06,MX,1686847487
429,lushun,38.8,121.2667,295.27,80,Clouds,4.27,CN,1686847489
430,chernyshevsk,52.5243,117.0174,284.3,56,Clouds,3.37,RU,1686847490
431,mil'kovo,55.6078,37.7956,298.42,57,Clouds,3.28,RU,1686847491
432,choibalsan,48.0667,114.5,288.44,57,Clouds,6.0,MN,1686847492
433,mejit,10.2753,170.8646,300.73,81,Rain,9.64,MH,1686847493
434,kijang,35.2442,129.2139,293.0,87,Clear,1.93,KR,1686847494
435,ghat,24.9647,10.1728,314.68,7,Clouds,5.08,LY,1686847495
436,namtsy,62.7161,129.6658,284.7,83,Clouds,4.44,RU,1686847496
437,mulayjah,27.271,48.4242,309.51,16,Clear,3.83,SA,1686847498
438,tura,25.5198,90.2201,295.3,95,Rain,2.26,IN,1686847499
439,kati,12.7441,-8.0726,305.82,28,Clouds,5.25,ML,1686847500
440,jumla,29.2747,82.1838,289.05,88,Clouds,0.23,NP,1686847144
441,independencia,-5.3964,-40.3086,303.48,47,Clouds,3.87,BR,1686847501
442,kirakira,-10.4544,161.9205,299.02,87,Clouds,2.07,SB,1686847503
443,anadyr,64.75,177.4833,274.43,80,Clouds,3.0,RU,1686847505
444,la junta,37.985,-103.5438,297.69,53,Clear,1.54,US,1686847506
445,babayurt,43.6002,46.7789,296.88,70,Rain,1.87,RU,1686847508
446,yung shue wan,22.2333,114.1167,300.83,90,Rain,6.25,HK,1686847508
447,barreiras,-12.1528,-44.99,307.1,26,Clear,2.44,BR,1686847509
448,ocean shores,46.9737,-124.1563,287.6,75,Clouds,3.6,US,1686847312
449,kailua-kona,19.6406,-155.9956,298.13,96,Rain,3.6,US,1686847216
450,zastron,-30.3023,27.084,280.25,78,Clouds,8.22,ZA,1686847512
451,cidreira,-30.1811,-50.2056,290.06,90,Clouds,9.39,BR,1686847513
452,charters towers,-20.1,146.2667,290.01,91,Clouds,2.79,AU,1686847514
453,taiynsha,53.8478,69.7639,292.33,45,Clouds,1.96,KZ,1686847282
454,east ballina,-28.8667,153.5833,280.26,82,Clear,3.74,AU,1686847516
455,evinayong,1.4368,10.5512,295.11,96,Rain,0.58,GQ,1686847517
456,sao jose da coroa grande,-8.8978,-35.1478,299.94,81,Clouds,5.91,BR,1686847518
457,altai,46.3722,96.2583,287.52,31,Clouds,1.45,MN,1686847519
458,henderson,36.0397,-114.9819,304.44,26,Clear,4.12,US,1686847519
459,al hada,21.3675,40.2869,300.81,36,Clouds,2.85,SA,1686847520
460,tubarjal,30.4999,38.216,303.23,22,Clear,6.95,SA,1686847521
461,whakatane,-37.9585,176.9854,280.25,97,Clouds,1.34,NZ,1686847522
462,togur,58.3631,82.8265,281.37,88,Clouds,2.31,RU,1686847524
463,borogontsy,62.6683,131.1683,283.05,92,Clouds,3.91,RU,1686847525
464,uray,60.1247,64.7758,285.17,48,Clouds,2.24,RU,1686847525
465,nadym,65.5333,72.5167,279.21,67,Clouds,2.42,RU,1686847526
466,coahuayana de hidalgo,18.7,-103.6583,306.31,45,Clouds,2.47,MX,1686847527
467,lebyazh'ye,55.2689,66.4947,289.42,67,Clouds,2.02,RU,1686847528
468,bazar-korgon,41.0376,72.7459,298.22,35,Clouds,4.97,KG,1686847529
469,sanniquellie,7.3622,-8.7061,299.08,84,Rain,1.2,LR,1686847530
470,fomboni,-12.28,43.7425,299.53,64,Rain,1.37,KM,1686847530
471,karratha,-20.7377,116.8463,294.13,50,Rain,0.86,AU,1686847531
472,nogliki,51.8333,143.1667,280.92,91,Clouds,5.49,RU,1686847532
473,zabaykal'sk,49.6333,117.3167,290.22,31,Clouds,6.88,RU,1686847533
474,abaete,-19.16,-45.4458,302.07,33,Clouds,2.39,BR,1686847534
475,west bay,19.3667,-81.4167,304.19,70,Clouds,6.69,KY,1686847254
476,kangaba,11.9333,-8.4167,309.56,32,Clouds,4.56,ML,1686847536
477,bonthe,7.5264,-12.505,300.92,73,Rain,5.3,SL,1686847537
478,alice springs,-23.7,133.8833,279.94,60,Clear,0.0,AU,1686847320
479,salinopolis,-0.6136,-47.3561,302.86,66,Clear,5.16,BR,1686847539
480,makarov,48.6333,142.8,283.0,94,Clear,2.61,RU,1686847540
481,shilin,24.8188,103.3324,290.28,97,Clouds,1.93,CN,1686847542
482,batticaloa,7.7102,81.6924,301.49,78,Clouds,2.06,LK,1686847542
483,babayevo,59.3936,35.9371,294.25,45,Clear,1.91,RU,1686847544
484,ridgecrest,35.6225,-117.6709,300.94,38,Clouds,2.57,US,1686847433
485,choix,26.7092,-108.3219,309.3,13,Clear,2.95,MX,1686847546
486,armacao de buzios,-22.7469,-41.8817,303.18,73,Clouds,8.69,BR,1686847547
487,carolina beach,34.0352,-77.8936,302.62,66,Clouds,5.57,US,1686847549
488,port alfred,-33.5906,26.891,286.58,91,Rain,0.45,ZA,1686847550
489,pangody,65.85,74.4859,277.09,82,Clouds,5.11,RU,1686847550
490,crookston,47.7741,-96.6081,293.12,52,Clear,6.17,US,1686847550
491,benoy,8.9833,16.3199,302.89,54,Clouds,2.83,TD,1686847551
492,necochea,-38.5473,-58.7368,286.73,39,Clouds,6.24,AR,1686847551
493,quellon,-43.1167,-73.6167,282.29,71,Clouds,4.12,CL,1686847551
494,zhanibek,49.4167,46.85,299.53,47,Clouds,1.5,KZ,1686847552
495,peterhead,57.5058,-1.7981,295.37,71,Clear,4.37,GB,1686847552
496,lodwar,3.1191,35.5973,306.57,31,Clouds,3.26,KE,1686847553
497,juegang,32.3174,121.1855,293.82,80,Clouds,3.45,CN,1686847554
498,suihua,46.6406,126.9969,292.48,70,Clouds,3.77,CN,1686847555
499,las heras,-46.5419,-68.9359,278.37,48,Clear,0.91,AR,1686847555
500,sao paulo de olivenca,-3.3783,-68.8725,297.64,63,Clouds,1.48,BR,1686847557
501,krasyliv,49.6519,26.9725,292.71,77,Rain,2.53,UA,1686847559
502,ust'-kut,56.7938,105.7672,279.79,71,Clouds,2.13,RU,1686847560
503,fort frances,48.5999,-93.4003,292.13,49,Clear,5.14,CA,1686847560
504,ketchikan,55.3422,-131.6461,284.41,76,Clouds,5.66,US,1686847561
505,naze,28.3667,129.4833,295.66,88,Clouds,1.53,JP,1686847561
506,constitucion,-35.3333,-72.4167,289.56,68,Clear,3.96,CL,1686847562
507,mont-laurier,46.5501,-75.4993,295.94,55,Clouds,2.16,CA,1686847562
508,canutama,-6.5339,-64.3831,299.82,52,Clouds,1.94,BR,1686847563
509,horta,38.5333,-28.6333,294.27,81,Clouds,6.69,PT,1686847564
510,pingnan,23.5543,110.3976,299.28,87,Clouds,0.62,CN,1686847565
511,katsuura,35.1333,140.3,293.72,94,Clouds,8.28,JP,1686847567
512,brokopondo,4.75,-55.1667,300.81,71,Clouds,2.58,SR,1686847568
513,slavutych,51.5196,30.7343,293.27,80,Rain,2.04,UA,1686847569
514,callao,-12.0667,-77.15,295.31,64,Clouds,5.66,PE,1686847570
515,kangding,30.0513,101.9603,285.91,98,Clouds,0.55,CN,1686847570
516,star dojran,41.1875,22.7208,294.21,80,Clouds,4.55,MK,1686847571
517,vila do maio,15.1333,-23.2167,302.59,75,Clouds,5.8,CV,1686847572
518,la villa del rosario,10.3258,-72.3134,305.35,59,Clouds,2.47,VE,1686847573
519,tilcara,-23.5776,-65.3509,284.15,10,Clear,1.27,AR,1686847574
520,alta,69.9689,23.2717,281.74,66,Clouds,1.54,NO,1686847575
521,batu pahat,1.8548,102.9325,299.16,84,Rain,2.57,MY,1686847575
522,karlskrona,56.1616,15.5866,295.4,53,Clouds,3.08,SE,1686847577
523,mersing,2.4312,103.8405,298.1,94,Clouds,1.54,MY,1686847579
524,eydhafushi,5.1033,73.0708,302.05,77,Clouds,6.11,MV,1686847580
525,monkey bay,-14.0728,34.9201,297.51,61,Clouds,3.83,MW,1686847581
526,erenhot,43.6475,111.9767,301.36,17,Clear,7.49,CN,1686847583
527,floro,61.5996,5.0328,299.19,68,Clouds,7.2,NO,1686847584
528,ambon,-3.6954,128.1814,299.23,86,Clouds,1.03,ID,1686847584
529,mhamid,29.82,-5.72,313.16,9,Clear,4.95,MA,1686847585
530,moyynkum,44.2914,72.9469,296.29,22,Clear,6.86,KZ,1686847586
531,abadeh,31.1608,52.6506,300.56,11,Clouds,7.1,IR,1686847587
532,klaksvik,62.2266,-6.589,287.66,90,Clouds,4.44,FO,1686847589
533,wotho,10.1657,166.0102,301.16,76,Clouds,9.76,MH,1686847590
534,manaure,11.7751,-72.4445,305.93,51,Clouds,10.53,CO,1686847591
535,margate,51.3813,1.3862,293.08,75,Clouds,0.45,GB,1686847591
536,kill devil hills,36.0307,-75.676,301.15,66,Clear,3.09,US,1686847592
537,cockburn town,21.4612,-71.1419,301.49,86,Clouds,8.18,TC,1686847370
538,dzhambeyty,50.2536,52.595,302.74,20,Clouds,4.64,KZ,1686847594
539,san felipe,10.3399,-68.7425,305.67,45,Clouds,3.2,VE,1686847595
540,kalinkavichy,52.1323,29.3257,293.55,78,Rain,2.58,BY,1686847597
541,manavadar,21.5,70.1333,301.78,83,Clouds,12.76,IN,1686847599
542,mutoko,-17.397,32.2268,290.22,29,Clear,1.24,ZW,1686847601
543,nizhneudinsk,54.9076,99.0276,280.51,74,Clear,2.15,RU,1686847602
544,strathmore,51.0501,-113.3852,287.52,66,Clouds,10.8,CA,1686847602
545,mayya,61.7333,130.2811,286.77,79,Clouds,4.26,RU,1686847603
546,albu kamal,34.45,40.9186,305.0,23,Clear,5.0,SY,1686847604
547,nar'yan-mar,67.6713,53.087,277.53,71,Clouds,11.35,RU,1686847607
548,bima,-8.4667,118.7167,294.5,95,Clear,1.86,ID,1686847608
549,cardigan,52.0847,-4.6591,295.31,73,Clouds,0.28,GB,1686847609
550,shelui,-4.3667,34.2,298.66,41,Clouds,2.51,TZ,1686847609
551,mount isa,-20.7333,139.5,279.02,56,Clouds,0.0,AU,1686847610
552,vitoria de santo antao,-8.1181,-35.2914,300.22,74,Clouds,5.74,BR,1686847369
553,darhan,49.4867,105.9228,283.85,56,Clouds,2.13,MN,1686847613
554,vilyuysk,63.7553,121.6247,280.31,95,Clouds,2.82,RU,1686847614
555,silkeborg,56.1697,9.5451,298.33,53,Clouds,3.11,DK,1686847615
556,jayapura,-2.5333,140.7,297.81,89,Rain,2.65,ID,1686847616
557,preveza,38.95,20.75,294.1,83,Clouds,3.09,GR,1686847617
558,bowen,-20.0167,148.2333,293.76,78,Clouds,3.32,AU,1686847618
559,kelibia,36.8476,11.0939,298.29,78,Clouds,5.14,TN,1686847618
560,kisangani,0.5167,25.2,300.11,68,Clouds,0.82,CD,1686847619
561,kerikeri,-35.2268,173.9474,282.54,94,Clouds,0.93,NZ,1686847619
562,nadi,-17.8,177.4167,295.15,94,Clouds,2.57,FJ,1686847620
563,cooper's town,26.8667,-77.5167,301.23,76,Clouds,5.81,BS,1686847621
564,zaozersk,69.4005,32.4476,279.82,60,Clouds,8.63,RU,1686847622
565,polyarnyy,69.1989,33.4478,279.86,63,Clouds,9.99,RU,1686847623
566,carbondale,37.7273,-89.2168,303.18,48,Clear,1.54,US,1686847624
567,baharly,38.4362,57.4316,308.4,15,Clear,1.39,TM,1686847624
568,dryden,49.7833,-92.7503,287.31,44,Clear,3.6,CA,1686847625
569,lokbatan,40.3237,49.728,297.14,68,Clouds,9.81,AZ,1686847626
570,kayangel,8.0823,134.7173,301.53,71,Clouds,0.82,PW,1686847627
571,talara,-4.5772,-81.2719,301.57,61,Clear,5.14,PE,1686847630
